[{"type":"bar","name":"Crown Piast Hotel & Park Kraków","coordinates":{"latitude":50.085871,"longitude":19.888134},"address":"Radzikowskiego 109, Kraków"},{"type":"bar","name":"Pomodorino","coordinates":{"latitude":50.0654737,"longitude":19.8744695},"address":"Królowej Jadwigi 250, Kraków"},{"type":"bar","name":"Bistro 304","coordinates":{"latitude":50.1086269,"longitude":19.8244101},"address":"Krakowska 304, Zabierzów"},{"type":"bar","name":"Yam Yam Thai To Go - restauracja tajska Kraków","coordinates":{"latitude":50.074238,"longitude":19.8850777},"address":"Ksiêdza Ferdynanda Machaya 1, Kraków"},{"type":"bar","name":"Akademickie Centrum Hotelowe","coordinates":{"latitude":50.0705867,"longitude":19.8990721},"address":"Armii Krajowej 9, Kraków"},{"type":"bar","name":"LadyChoco Beata Donatowicz","coordinates":{"latitude":50.1026116,"longitude":19.8343916},"address":"Pó³kole 7, Kraków"},{"type":"bar","name":"Rogate Ranczo","coordinates":{"latitude":50.1027676,"longitude":19.8151437},"address":"Stanis³awa Kmity 26, Zabierzów"},{"type":"bar","name":"Stodo³a. Bar","coordinates":{"latitude":50.0599908,"longitude":19.8361663},"address":"Za Sk³onem 14, Kraków"},{"type":"bar","name":"Bar Palce Lizaæ","coordinates":{"latitude":50.0785401,"longitude":19.8953345},"address":"Gabrieli Zapolskiej 24, Kraków"},{"type":"bar","name":"Bar Kuchnia Polska","coordinates":{"latitude":50.0785401,"longitude":19.8953345},"address":"Gabrieli Zapolskiej 24, Kraków"},{"type":"bar","name":"Calisto. Lunch bar","coordinates":{"latitude":50.0714901,"longitude":19.8945015},"address":"Armii Krajowej 18, Kraków"},{"type":"bar","name":"Bratwurst","coordinates":{"latitude":50.0728868,"longitude":19.8955978},"address":"Stanis³awa Przybyszewskiego 65, Kraków"},{"type":"bar","name":"bar mleczny magenta","coordinates":{"latitude":50.0837515,"longitude":19.9013091},"address":"Radzikowskiego 47b, Kraków"},{"type":"bar","name":"U Szwagra","coordinates":{"latitude":50.079662,"longitude":19.895257},"address":"Bronowicka 76, Kraków"}]